{"class":"VERSION","release":"2.96","rev":"2011-03-22T16:22:29","proto_major":3,"proto_minor":4}
{"class":"DEVICES","devices":[{"class":"DEVICE","path":"/dev/ttyUSB0","activated":1305978393.85,"flags":1,"driver":"SiRF binary","subtype":"Jupiter21 v1.9 build 2 (ST)","native":1,"bps":4800,"parity":"N","stopbits":1,"cycle":1.00}]}
{"class":"WATCH","enable":true,"json":false,"nmea":true,"raw":0,"scaled":false,"timing":false}
{"class":"DEVICE","path":"/dev/ttyUSB0","activated":1305978394.23,"flags":1,"driver":"SiRF binary","subtype":"Jupiter21 v1.9 build 2 (ST)","native":1,"bps":4800,"parity":"N","stopbits":1,"cycle":1.00}
{"class":"DEVICE","path":"/dev/ttyUSB0","activated":1305978394.25,"flags":1,"driver":"SiRF binary","subtype":"Jupiter21 v1.9 build 2 (ST)","native":1,"bps":4800,"parity":"N","stopbits":1,"cycle":1.00}
$GPZDA,114625.77,21,05,2011,00,00*67
$GPGGA,114625,5633.7685,N,00346.3722,W,2,08,1.00,394.18,M,51.032,M,,*57
$GPRMC,114625,A,5633.7685,N,00346.3722,W,0.0000,0.000,210511,,*36
$GPGSA,A,3,05,15,08,07,26,10,28,27,,,,,3.5,1.0,2.7*34
$GPGBS,114625,3.50,M,7.48,M,15.62,M*06
$GPGSV,3,1,12,05,51,186,42,21,20,310,00,15,32,277,46,03,06,009,37*7E
$GPGSV,3,2,12,19,06,036,34,08,57,069,46,07,27,058,41,26,72,274,49*77
$GPGSV,3,3,12,10,10,153,34,28,35,126,43,27,10,229,30,124,24,193,36*45
$GPZDA,114626.77,21,05,2011,00,00*64
$GPGGA,114626,5633.7682,N,00346.3722,W,2,08,1.00,393.35,M,51.032,M,,*5B
$GPRMC,114626,A,5633.7682,N,00346.3722,W,0.0703,166.850,210511,,*3A
$GPGSA,A,3,05,15,08,07,26,10,28,27,,,,,2.5,1.0,2.1*33
$GPGSV,3,1,12,05,51,186,41,21,20,310,00,15,32,277,46,03,06,009,37*7D
$GPGSV,3,2,12,19,06,036,33,08,57,069,46,07,27,058,41,26,72,274,50*78
$GPGSV,3,3,12,10,10,153,34,28,35,126,43,27,10,229,32,124,24,193,36*47
$GPZDA,114627.77,21,05,2011,00,00*65
$GPGGA,114627,5633.7675,N,00346.3721,W,2,08,1.00,393.06,M,51.032,M,,*51
$GPRMC,114627,A,5633.7675,N,00346.3721,W,0.0703,166.850,210511,,*30
$GPGSA,A,3,05,15,08,07,26,10,28,27,,,,,2.5,1.0,2.1*33
$GPGSV,3,1,12,05,51,186,41,21,20,310,00,15,32,277,46,03,06,009,37*7D
$GPGSV,3,2,12,19,06,036,34,08,57,069,46,07,27,058,42,26,72,274,49*74
$GPGSV,3,3,12,10,10,153,34,28,35,126,43,27,10,229,31,124,24,193,36*44
$GPZDA,114628.77,21,05,2011,00,00*6A
$GPGGA,114628,5633.7675,N,00346.3731,W,2,08,1.00,393.10,M,51.032,M,,*58
$GPRMC,114628,A,5633.7675,N,00346.3731,W,0.0703,166.850,210511,,*3E
$GPGSA,A,3,05,15,08,07,26,10,28,27,,,,,2.5,1.0,2.1*33
$GPGSV,3,1,12,05,51,186,42,21,20,310,00,15,32,277,46,03,06,009,37*7E
$GPGSV,3,2,12,19,06,036,32,08,57,069,46,07,27,058,41,26,72,274,50*79
$GPGSV,3,3,12,10,10,153,33,28,35,126,43,27,10,229,27,124,24,193,36*44
$GPZDA,114629.77,21,05,2011,00,00*6B
$GPGGA,114629,5633.7673,N,00346.3732,W,2,07,1.00,390.88,M,51.032,M,,*51
$GPRMC,114629,A,5633.7673,N,00346.3732,W,0.1339,0.000,210511,,*3A
$GPGSA,A,3,05,15,08,07,26,10,28,,,,,,2.5,1.0,2.1*36
$GPGSV,3,1,12,05,51,186,42,21,20,310,00,15,32,277,46,03,06,009,37*7E
$GPGSV,3,2,12,19,06,036,31,08,57,069,46,07,27,058,41,26,72,274,50*7A
$GPGSV,3,3,12,10,10,153,32,28,35,126,42,27,10,229,26,124,24,193,36*45
$GPZDA,114630.77,21,05,2011,00,00*63
$GPGGA,114630,5633.7675,N,00346.3732,W,2,07,1.00,389.49,M,51.032,M,,*5A
$GPRMC,114630,A,5633.7675,N,00346.3732,W,0.1339,0.000,210511,,*34
$GPGSA,A,3,05,15,08,07,26,10,28,,,,,,3.2,1.0,2.8*39
$GPGSV,3,1,12,05,51,186,42,21,20,310,00,15,32,277,47,03,06,009,37*7F
$GPGSV,3,2,12,19,06,036,31,08,57,069,46,07,27,058,41,26,72,274,50*7A
$GPGSV,3,3,12,10,10,153,32,28,35,126,43,27,10,229,28,124,24,193,36*4A
$GPZDA,114631.77,21,05,2011,00,00*62
$GPGGA,114631,5633.7674,N,00346.3742,W,2,07,1.00,389.53,M,51.032,M,,*56
$GPRMC,114631,A,5633.7674,N,00346.3742,W,0.1339,0.000,210511,,*33
$GPGSA,A,3,05,15,08,07,26,10,28,,,,,,3.2,1.0,2.8*39
$GPGSV,3,1,12,05,51,186,42,21,20,310,00,15,32,277,46,03,06,009,37*7E
$GPGSV,3,2,12,19,06,036,33,08,57,069,47,07,27,058,41,26,72,274,50*79
$GPGSV,3,3,12,10,10,153,32,28,35,126,44,27,10,229,27,124,24,193,36*42
$GPZDA,114632.77,21,05,2011,00,00*61
$GPGGA,114632,5633.7670,N,00346.3741,W,2,07,1.00,390.08,M,51.032,M,,*54
$GPRMC,114632,A,5633.7670,N,00346.3741,W,0.2428,86.850,210511,,*00
$GPGSA,A,3,05,15,08,07,26,10,28,,,,,,3.2,1.0,2.8*39
$GPGSV,3,1,12,05,51,186,42,21,20,310,00,15,32,277,46,03,06,009,37*7E
$GPGSV,3,2,12,19,06,036,31,08,57,069,46,07,27,058,41,26,72,274,50*7A
$GPGSV,3,3,12,10,10,153,32,28,35,126,44,27,10,229,28,124,24,193,37*4C
$GPZDA,114633.77,21,05,2011,00,00*60
$GPGGA,114633,5633.7676,N,00346.3741,W,2,08,1.00,391.75,M,51.032,M,,*57
$GPRMC,114633,A,5633.7676,N,00346.3741,W,0.0000,0.000,210511,,*38
$GPGSA,A,3,05,15,08,07,26,10,28,27,,,,,3.2,1.0,2.8*3C
$GPGSV,3,1,12,05,51,186,42,21,20,310,00,15,32,277,46,03,06,009,38*71
$GPGSV,3,2,12,19,06,036,17,08,57,069,46,07,27,058,41,26,72,274,50*7E
$GPGSV,3,3,12,10,10,153,32,28,35,126,44,27,10,229,28,124,24,193,37*4C
$GPZDA,114634.77,21,05,2011,00,00*67
$GPGGA,114634,5633.7674,N,00346.3751,W,2,07,1.00,393.17,M,51.032,M,,*5A
$GPRMC,114634,A,5633.7674,N,00346.3751,W,0.0000,0.000,210511,,*3C
$GPGSA,A,3,05,15,08,07,26,10,28,,,,,,2.5,1.0,2.1*36
$GPGSV,3,1,12,05,51,186,42,21,20,310,00,15,32,277,46,03,06,009,37*7E
$GPGSV,3,2,12,19,06,036,31,08,57,069,46,07,27,058,41,26,72,274,49*72
$GPGSV,3,3,12,10,10,153,33,28,35,126,44,27,10,229,28,124,24,193,37*4D
$GPZDA,114636.77,21,05,2011,00,00*65
$GPGGA,114636,5633.7678,N,00346.3760,W,2,07,1.00,396.26,M,51.032,M,,*51
$GPRMC,114636,A,5633.7678,N,00346.3760,W,0.1339,0.000,210511,,*38
$GPGSA,A,3,05,15,08,07,26,10,28,,,,,,3.2,1.0,2.8*39
$GPGSV,3,1,12,05,51,186,42,21,20,310,00,15,32,277,46,03,06,009,37*7E
$GPGSV,3,2,12,19,06,036,29,08,57,069,46,07,27,058,41,26,72,274,49*7B
$GPGSV,3,3,12,10,10,153,33,28,35,126,44,27,10,229,30,124,24,193,37*44
$GPZDA,114637.77,21,05,2011,00,00*64
$GPGGA,114637,5633.7677,N,00346.3759,W,2,08,1.00,397.64,M,51.032,M,,*5D
$GPRMC,114637,A,5633.7677,N,00346.3759,W,0.1339,0.000,210511,,*3C
$GPGSA,A,3,05,15,08,07,26,10,28,27,,,,,3.2,1.0,2.8*3C
$GPGSV,3,1,12,05,51,186,42,21,20,310,00,15,32,277,47,03,06,009,38*70
$GPGSV,3,2,12,19,06,036,29,08,57,069,46,07,27,058,41,26,72,274,49*7B
$GPGSV,3,3,12,10,10,153,34,28,35,126,43,27,10,229,17,124,24,193,37*41
$GPZDA,114638.77,21,05,2011,00,00*6B
$GPGGA,114638,5633.7678,N,00346.3758,W,2,08,1.00,399.86,M,51.032,M,,*5E
$GPRMC,114638,A,5633.7678,N,00346.3758,W,0.1339,0.000,210511,,*3D
$GPGSA,A,3,05,15,08,07,26,10,28,27,,,,,2.5,1.0,2.1*33
$GPGSV,3,1,12,05,51,186,41,21,20,310,00,15,32,277,46,03,06,009,38*72
$GPGSV,3,2,12,19,06,036,32,08,57,069,47,07,27,058,41,26,72,274,50*78
$GPGSV,3,3,12,10,10,153,33,28,35,126,43,27,10,229,00,124,24,193,36*41
$GPZDA,114639.77,21,05,2011,00,00*6A
$GPGGA,114639,5633.7678,N,00346.3758,W,2,07,1.00,399.86,M,51.032,M,,*50
$GPRMC,114639,A,5633.7678,N,00346.3758,W,0.1339,0.000,210511,,*3C
$GPGSA,A,3,05,15,08,07,26,10,28,,,,,,2.5,1.0,2.1*36
$GPGSV,3,1,12,05,51,186,41,21,20,310,00,15,32,277,46,03,06,009,38*72
$GPGSV,3,2,12,19,06,036,31,08,57,069,46,07,27,058,42,26,72,274,50*79
$GPGSV,3,3,12,10,10,153,34,28,35,126,43,27,10,229,00,124,24,193,37*47
$GPZDA,114640.77,21,05,2011,00,00*64
$GPGGA,114640,5633.7678,N,00346.3758,W,2,07,1.00,399.86,M,51.032,M,,*5E
$GPRMC,114640,A,5633.7678,N,00346.3758,W,0.1339,0.000,210511,,*32
$GPGSA,A,3,05,15,08,07,26,10,28,,,,,,3.2,1.0,2.8*39
$GPGSV,3,1,12,05,51,186,41,21,20,310,00,15,32,277,45,03,06,009,38*71
$GPGSV,3,2,12,19,06,036,31,08,57,069,46,07,27,058,42,26,72,274,50*79
$GPGSV,3,3,12,10,10,153,33,28,35,126,44,27,10,229,33,124,24,193,37*47
$GPZDA,114641.77,21,05,2011,00,00*65
$GPGGA,114641,5633.7677,N,00346.3758,W,2,08,1.00,401.25,M,51.032,M,,*50
$GPRMC,114641,A,5633.7677,N,00346.3758,W,0.0703,166.850,210511,,*3C
$GPGSA,A,3,05,15,08,07,26,10,28,27,,,,,3.2,1.0,2.8*3C
$GPGSV,3,1,12,05,51,186,41,21,20,310,00,15,32,277,46,03,06,009,38*72
$GPGSV,3,2,12,19,06,036,33,08,57,069,46,07,27,058,41,26,72,274,49*70
$GPGSV,3,3,12,10,10,153,33,28,35,126,44,27,10,229,25,124,24,193,37*40
$GPZDA,114642.77,21,05,2011,00,00*66
$GPGGA,114642,5633.7674,N,00346.3758,W,2,07,1.00,400.41,M,51.032,M,,*5C
$GPRMC,114642,A,5633.7674,N,00346.3758,W,0.1339,0.000,210511,,*3C
$GPGSA,A,3,05,15,08,07,26,10,28,,,,,,2.5,1.0,2.1*36
$GPGSV,3,1,12,05,51,186,42,21,20,310,00,15,32,277,46,03,06,009,38*71
$GPGSV,3,2,12,19,06,036,32,08,57,069,47,07,27,058,41,26,72,274,50*78
$GPGSV,3,3,12,10,10,153,34,28,35,126,45,27,10,229,24,124,24,193,37*47
$GPZDA,114643.77,21,05,2011,00,00*67
$GPGGA,114643,5633.7672,N,00346.3758,W,2,07,1.00,398.19,M,51.032,M,,*50
$GPRMC,114643,A,5633.7672,N,00346.3758,W,0.0000,0.000,210511,,*33
$GPGSA,A,3,05,15,08,07,26,10,28,,,,,,3.2,1.0,2.8*39
$GPGSV,3,1,12,05,51,186,42,21,20,310,00,15,32,277,46,03,06,009,38*71
$GPGSV,3,2,12,19,06,036,30,08,57,069,46,07,27,058,42,26,72,274,50*78
$GPGSV,3,3,12,10,10,153,35,28,35,126,45,27,10,229,02,124,24,193,37*42
$GPZDA,114644.77,21,05,2011,00,00*60
$GPGGA,114644,5633.7673,N,00346.3769,W,2,07,1.00,396.85,M,51.032,M,,*5F
$GPRMC,114644,A,5633.7673,N,00346.3769,W,0.0000,0.000,210511,,*37
$GPGSA,A,3,05,15,08,07,26,10,28,,,,,,3.2,1.0,2.8*39
$GPGSV,3,1,12,05,51,186,42,21,20,310,00,15,32,277,47,03,06,009,38*70
$GPGSV,3,2,12,19,06,036,32,08,57,069,46,07,27,058,41,26,72,274,50*79
$GPGSV,3,3,12,10,10,153,34,28,35,126,45,27,10,229,00,124,24,193,37*41
$GPZDA,114645.77,21,05,2011,00,00*61
$GPGGA,114645,5633.7675,N,00346.3769,W,2,07,1.00,395.46,M,51.032,M,,*54
$GPRMC,114645,A,5633.7675,N,00346.3769,W,0.0000,0.000,210511,,*30
$GPGSA,A,3,05,15,08,07,26,10,28,,,,,,3.2,1.0,2.8*39
$GPGSV,3,1,12,05,51,186,42,21,20,310,00,15,32,277,47,03,06,009,37*7F
$GPGSV,3,2,12,19,06,036,33,08,57,069,46,07,27,058,41,26,72,274,50*78
$GPGSV,3,3,12,10,10,153,34,28,35,126,45,27,10,229,00,124,24,193,37*41
$GPZDA,114646.77,21,05,2011,00,00*62
$GPGGA,114646,5633.7676,N,00346.3770,W,2,07,1.00,394.08,M,51.032,M,,*57
$GPRMC,114646,A,5633.7676,N,00346.3770,W,0.0000,0.000,210511,,*38
$GPGSA,A,3,05,15,08,07,26,10,28,,,,,,3.2,1.0,2.8*39
$GPGSV,3,1,12,05,51,186,42,21,20,310,00,15,32,277,46,03,06,009,37*7E
$GPGSV,3,2,12,19,06,036,31,08,57,069,47,07,27,058,41,26,72,274,50*7B
$GPGSV,3,3,12,10,10,153,34,28,35,126,44,27,10,229,00,124,24,193,37*40
$GPZDA,114647.77,21,05,2011,00,00*63
$GPGGA,114647,5633.7678,N,00346.3771,W,2,07,1.00,392.69,M,51.032,M,,*58
$GPRMC,114647,A,5633.7678,N,00346.3771,W,0.0000,0.000,210511,,*36
$GPGSA,A,3,05,15,08,07,26,10,28,,,,,,3.2,1.0,2.8*39
$GPGSV,3,1,12,05,51,186,42,21,20,310,00,15,32,277,46,03,06,009,38*71
$GPGSV,3,2,12,19,06,036,34,08,57,069,46,07,27,058,42,26,72,274,51*7D
$GPGSV,3,3,12,10,10,153,35,28,35,126,45,27,10,229,00,124,24,193,37*40
$GPZDA,114648.77,21,05,2011,00,00*6C
$GPGGA,114648,5633.7680,N,00346.3762,W,2,07,1.00,391.27,M,51.032,M,,*5B
$GPRMC,114648,A,5633.7680,N,00346.3762,W,0.0000,0.000,210511,,*3C
$GPGSA,A,3,05,15,08,07,26,10,28,,,,,,3.2,1.0,2.8*39
$GPGSV,3,1,12,05,51,186,42,21,20,310,00,15,32,277,46,03,06,009,38*71
$GPGSV,3,2,12,19,06,036,32,08,57,069,47,07,27,058,42,26,72,274,50*7B
$GPGSV,3,3,12,10,10,153,36,28,35,126,45,27,10,229,00,124,24,193,37*43
$GPZDA,114649.77,21,05,2011,00,00*6D
$GPGGA,114649,5633.7681,N,00346.3762,W,2,07,1.00,389.89,M,51.032,M,,*56
$GPRMC,114649,A,5633.7681,N,00346.3762,W,0.0000,0.000,210511,,*3C
$GPGSA,A,3,05,15,08,07,26,10,28,,,,,,3.2,1.0,2.8*39
$GPGSV,3,1,12,05,51,186,43,21,20,310,00,15,32,277,46,03,06,009,38*70
$GPGSV,3,2,12,19,06,036,30,08,57,069,47,07,27,058,42,26,72,274,50*79
$GPGSV,3,3,12,10,10,153,33,28,35,126,44,27,10,229,00,124,24,193,37*47
$GPZDA,114650.77,21,05,2011,00,00*65
$GPGGA,114650,5633.7681,N,00346.3772,W,2,07,1.00,389.92,M,51.032,M,,*55
$GPRMC,114650,A,5633.7681,N,00346.3772,W,0.0000,0.000,210511,,*35
$GPGSA,A,3,05,15,08,07,26,10,28,,,,,,3.2,1.0,2.8*39
$GPGSV,3,1,12,05,51,186,43,21,20,310,00,15,32,277,47,03,06,009,38*71
$GPGSV,3,2,12,19,06,036,33,08,57,069,47,07,27,058,42,26,72,274,50*7A
$GPGSV,3,3,12,10,10,153,33,28,35,126,44,27,10,229,00,124,24,193,37*47
$GPZDA,114651.77,21,05,2011,00,00*64
$GPGGA,114651,5633.7683,N,00346.3773,W,2,07,1.00,388.54,M,51.032,M,,*5C
$GPRMC,114651,A,5633.7683,N,00346.3773,W,0.0000,0.000,210511,,*37
$GPGSA,A,3,05,15,08,07,26,10,28,,,,,,3.2,1.0,2.8*39
$GPGSV,3,1,12,05,51,186,42,21,20,310,00,15,32,277,47,03,06,009,38*70
$GPGSV,3,2,12,19,06,036,30,08,57,069,47,07,27,058,41,26,72,274,49*72
$GPGSV,3,3,12,10,10,153,32,28,35,126,45,27,10,229,00,124,24,193,37*47
$GPZDA,114652.77,21,05,2011,00,00*67
$GPGGA,114652,5633.7683,N,00346.3773,W,2,07,1.00,388.54,M,51.032,M,,*5F
$GPRMC,114652,A,5633.7683,N,00346.3773,W,0.0000,0.000,210511,,*34
$GPGSA,A,3,05,15,08,07,26,10,28,,,,,,3.2,1.0,2.8*39
$GPGSV,3,1,12,05,51,186,42,21,20,310,00,15,32,277,47,03,06,009,39*71
$GPGSV,3,2,12,19,06,036,31,08,57,069,47,07,27,058,41,26,72,274,49*73
$GPGSV,3,3,12,10,10,153,34,28,35,126,44,27,10,229,00,124,24,193,37*40
$GPZDA,114653.77,21,05,2011,00,00*66
$GPGGA,114653,5633.7680,N,00346.3773,W,2,07,1.00,387.70,M,51.032,M,,*54
$GPRMC,114653,A,5633.7680,N,00346.3773,W,0.0000,0.000,210511,,*36
$GPGSA,A,3,05,15,08,07,26,10,28,,,,,,3.2,1.0,2.8*39
$GPGSV,3,1,12,05,51,186,43,21,20,310,00,15,32,277,47,03,06,009,38*71
$GPGSV,3,2,12,19,06,036,32,08,57,069,47,07,27,058,41,26,72,274,49*70
$GPGSV,3,3,12,10,10,153,35,28,35,126,43,27,10,229,00,124,24,193,37*46
$GPZDA,114654.77,21,05,2011,00,00*61
$GPGGA,114654,5633.7687,N,00346.3763,W,2,07,1.00,387.95,M,51.032,M,,*5E
$GPRMC,114654,A,5633.7687,N,00346.3763,W,0.1339,0.000,210511,,*3F
$GPGSA,A,3,05,15,08,07,26,10,28,,,,,,3.2,1.0,2.8*39
$GPGSV,3,1,12,05,51,186,43,21,20,310,00,15,32,277,47,03,06,009,38*71
$GPGSV,3,2,12,19,06,036,29,08,57,069,46,07,27,058,41,26,72,274,49*7B
$GPGSV,3,3,12,10,10,153,34,28,35,126,43,27,10,229,00,124,24,193,37*47
$GPZDA,114655.77,21,05,2011,00,00*60
$GPGGA,114655,5633.7684,N,00346.3763,W,2,07,1.00,387.12,M,51.032,M,,*53
$GPRMC,114655,A,5633.7684,N,00346.3763,W,0.1339,0.000,210511,,*3D
$GPGSA,A,3,05,15,08,07,26,10,28,,,,,,3.2,1.0,2.8*39
$GPGSV,3,1,12,05,51,186,43,21,20,310,00,15,32,277,46,03,06,009,39*71
$GPGSV,3,2,12,19,06,036,33,08,57,069,47,07,27,058,42,26,72,274,49*72
$GPGSV,3,3,12,10,10,153,34,28,35,126,43,27,10,229,00,124,24,193,37*47
$GPZDA,114656.77,21,05,2011,00,00*63
$GPGGA,114656,5633.7684,N,00346.3763,W,2,07,1.00,387.12,M,51.032,M,,*50
$GPRMC,114656,A,5633.7684,N,00346.3763,W,0.1339,0.000,210511,,*3E
$GPGSA,A,3,05,15,08,07,26,10,28,,,,,,3.2,1.0,2.8*39
$GPGSV,3,1,12,05,51,186,43,21,20,310,00,15,32,277,46,03,06,009,39*71
$GPGSV,3,2,12,19,06,036,29,08,57,069,46,07,27,058,42,26,72,274,49*78
$GPGSV,3,3,12,10,10,153,35,28,35,126,43,27,10,229,00,124,24,193,37*46
$GPZDA,114657.77,21,05,2011,00,00*62
$GPGGA,114657,5633.7684,N,00346.3763,W,2,07,1.00,387.12,M,51.032,M,,*51
$GPRMC,114657,A,5633.7684,N,00346.3763,W,0.0703,166.850,210511,,*3F
$GPGSA,A,3,05,15,08,07,26,10,28,,,,,,3.2,1.0,2.8*39
$GPGSV,3,1,12,05,51,186,43,21,20,310,00,15,32,277,46,03,06,009,39*71
$GPGSV,3,2,12,19,06,036,32,08,57,069,46,07,27,058,42,26,72,274,49*72
$GPGSV,3,3,12,10,10,153,35,28,35,126,43,27,10,229,00,124,24,193,37*46
$GPZDA,114658.77,21,05,2011,00,00*6D
$GPGGA,114658,5633.7681,N,00346.3763,W,2,07,1.00,386.28,M,51.032,M,,*53
$GPRMC,114658,A,5633.7681,N,00346.3763,W,0.0703,166.850,210511,,*35
$GPGSA,A,3,05,15,08,07,26,10,28,,,,,,3.2,1.0,2.8*39
$GPGSV,3,1,12,05,51,186,42,21,20,310,00,15,32,277,47,03,06,009,39*71
$GPGSV,3,2,12,19,06,036,30,08,57,069,46,07,27,058,42,26,72,274,49*70
$GPGSV,3,3,12,10,10,153,36,28,35,126,43,27,10,229,00,124,24,193,37*45
$GPZDA,114659.77,21,05,2011,00,00*6C
$GPGGA,114659,5633.7684,N,00346.3763,W,2,07,1.00,387.12,M,51.032,M,,*5F
$GPRMC,114659,A,5633.7684,N,00346.3763,W,0.1339,0.000,210511,,*31
$GPGSA,A,3,05,15,08,07,26,10,28,,,,,,3.2,1.0,2.8*39
$GPGSV,3,1,12,05,51,186,43,21,20,310,20,15,32,277,47,03,06,009,37*7C
$GPGSV,3,2,12,19,06,036,31,08,57,069,46,07,27,058,41,26,72,274,48*73
$GPGSV,3,3,12,10,10,153,38,28,35,126,44,27,10,229,09,124,24,193,36*44
$GPZDA,114700.77,21,05,2011,00,00*61
$GPGGA,114700,5633.7687,N,00346.3763,W,2,07,1.00,387.95,M,51.032,M,,*5E
$GPRMC,114700,A,5633.7687,N,00346.3763,W,0.5108,71.678,210511,,*04
$GPGSA,A,3,05,15,08,07,26,10,28,,,,,,3.2,1.0,2.8*39
$GPGSV,3,1,12,05,51,186,40,21,20,310,36,15,32,277,47,03,06,009,36*79
$GPGSV,3,2,12,19,06,036,33,08,57,069,46,07,27,058,39,26,72,274,48*7E
$GPGSV,3,3,12,10,10,153,40,28,35,126,45,27,10,229,29,124,24,193,35*4B
$GPZDA,114701.77,21,05,2011,00,00*60
$GPGGA,114701,5633.7688,N,00346.3752,W,2,09,0.80,391.52,M,51.032,M,,*59
$GPRMC,114701,A,5633.7688,N,00346.3752,W,0.8754,54.356,210511,,*04
$GPGSA,A,3,05,21,15,08,07,26,10,28,27,,,,3.2,0.8,2.8*36
$GPGSV,3,1,12,05,51,186,42,21,20,310,40,15,32,277,47,03,06,009,36*7A
$GPGSV,3,2,12,19,06,036,20,08,57,069,48,07,27,058,36,26,72,274,48*7D
$GPGSV,3,3,12,10,10,153,38,28,35,126,44,27,10,229,28,124,24,193,37*46
$GPZDA,114702.77,21,05,2011,00,00*63
$GPGGA,114702,5633.7691,N,00346.3743,W,2,08,0.80,392.32,M,51.032,M,,*56
$GPRMC,114702,A,5633.7691,N,00346.3743,W,1.1859,52.264,210511,,*03
$GPGSA,A,3,05,21,15,08,07,26,10,28,,,,,1.5,0.8,1.2*3F
$GPGSV,3,1,12,05,51,186,41,21,20,310,39,15,32,277,48,03,06,009,34*7A
$GPGSV,3,2,12,19,06,036,36,08,57,069,48,07,27,058,40,26,72,274,47*74
$GPGSV,3,3,12,10,10,153,38,28,35,126,44,27,10,229,00,124,24,193,34*4F
$GPZDA,114703.77,21,05,2011,00,00*62
$GPGGA,114703,5633.7694,N,00346.3733,W,2,08,0.80,393.12,M,51.032,M,,*56
$GPRMC,114703,A,5633.7694,N,00346.3733,W,2.1960,59.475,210511,,*05
$GPGSA,A,3,05,21,15,08,07,26,10,28,,,,,2.5,0.8,2.1*3C
$GPGSV,3,1,12,05,51,186,40,21,20,310,42,15,32,277,49,03,06,009,33*71
$GPGSV,3,2,12,19,06,036,36,08,57,069,47,07,27,058,42,26,72,274,48*76
$GPGSV,3,3,12,10,10,153,39,28,35,126,42,27,10,229,30,124,24,193,29*47
$GPGSV,3,1,12,05,51,186,42,21,20,310,41,15,32,277,46,03,06,009,27*7A
$GPGSV,3,2,12,19,06,036,36,08,57,069,44,07,27,058,42,26,72,274,49*74
$GPGSV,3,3,12,10,10,153,44,28,35,126,40,27,10,229,39,124,24,193,26*49
$GPZDA,114705.77,21,05,2011,00,00*64
$GPGGA,114705,5633.7701,N,00346.3694,W,2,09,0.80,394.64,M,51.032,M,,*56
$GPRMC,114705,A,5633.7701,N,00346.3694,W,4.4274,94.753,210511,,*09
$GPGSA,A,3,05,21,15,08,07,26,10,28,27,,,,2.5,0.8,2.1*39
$GPGSV,3,1,12,05,51,186,46,21,20,310,39,15,32,277,44,03,06,009,16*71
$GPGSV,3,2,12,19,06,036,33,08,57,069,43,07,27,058,45,26,72,274,50*79
$GPGSV,3,3,12,10,10,153,44,28,35,126,38,27,10,229,38,124,24,193,28*49
$GPZDA,114706.77,21,05,2011,00,00*67
$GPGGA,114706,5633.7698,N,00346.3664,W,2,09,0.80,395.08,M,51.032,M,,*50
$GPRMC,114706,A,5633.7698,N,00346.3664,W,4.9367,124.772,210511,,*33
$GPGSA,A,3,05,21,15,08,07,26,10,28,27,,,,1.5,0.8,1.2*3A
$GPGSV,3,1,12,05,51,186,48,21,20,310,35,15,32,277,36,03,06,009,41*74
$GPGSV,3,2,12,19,06,036,28,08,57,069,49,07,27,058,42,26,72,274,49*76
$GPGSV,3,3,12,10,10,153,38,28,35,126,38,27,10,229,42,124,24,193,29*4E
$GPZDA,114707.77,21,05,2011,00,00*66
$GPGGA,114707,5633.7686,N,00346.3653,W,2,09,0.80,395.31,M,51.032,M,,*50
$GPRMC,114707,A,5633.7686,N,00346.3653,W,5.2900,155.289,210511,,*3F
$GPGSA,A,3,05,21,15,08,07,26,10,28,27,,,,1.5,0.8,1.2*3A
$GPGSV,3,1,12,05,51,186,47,21,20,310,43,15,32,277,39,03,06,009,35*76
$GPGSV,3,2,12,19,06,036,42,08,57,069,49,07,27,058,39,26,72,274,49*76
$GPGSV,3,3,12,10,10,153,40,28,35,126,43,27,10,229,43,124,24,193,28*4D
$GPZDA,114708.77,21,05,2011,00,00*69
$GPGGA,114708,5633.7674,N,00346.3652,W,2,09,0.80,395.58,M,51.032,M,,*5C
$GPRMC,114708,A,5633.7674,N,00346.3652,W,5.0145,188.002,210511,,*36
$GPGSA,A,3,05,21,15,08,07,26,10,28,27,,,,1.5,0.8,1.2*3A
$GPGSV,3,1,12,05,51,186,44,21,20,310,40,15,32,277,37,03,06,009,30*7D
$GPGSV,3,2,12,19,06,036,37,08,57,069,48,07,27,058,44,26,72,274,49*7F
$GPGSV,3,3,12,10,10,153,37,28,35,126,46,27,10,229,40,124,24,193,31*43
$GPZDA,114709.77,21,05,2011,00,00*68
$GPGGA,114709,5633.7659,N,00346.3660,W,2,09,0.80,395.04,M,51.032,M,,*5A
$GPRMC,114709,A,5633.7659,N,00346.3660,W,5.3895,216.035,210511,,*3E
$GPGSA,A,3,05,21,15,08,07,26,10,28,27,,,,1.5,0.8,1.2*3A
$GPGSV,3,1,12,05,51,186,47,21,20,310,39,15,32,277,37,03,06,009,36*76
$GPGSV,3,2,12,19,06,036,35,08,57,069,47,07,27,058,46,26,72,274,49*70
$GPGSV,3,3,12,10,10,153,36,28,35,126,44,27,10,229,35,124,24,193,35*46
$GPZDA,114711.77,21,05,2011,00,00*61
$GPGGA,114711,5633.7645,N,00346.3708,W,2,09,0.80,395.49,M,51.032,M,,*58
$GPRMC,114711,A,5633.7645,N,00346.3708,W,5.0114,227.646,210511,,*36
$GPGSA,A,3,05,21,15,08,07,26,10,28,27,,,,1.5,0.8,1.2*3A
$GPGSV,3,1,12,05,51,186,45,21,20,310,39,15,32,277,39,03,06,009,36*7A
$GPGSV,3,2,12,19,06,036,33,08,57,069,47,07,27,058,45,26,72,274,49*75
$GPGSV,3,3,12,10,10,153,35,28,35,126,44,27,10,229,31,124,24,193,36*42
$GPZDA,114712.77,21,05,2011,00,00*62
$GPGGA,114712,5633.7636,N,00346.3726,W,2,09,0.80,396.66,M,51.032,M,,*5D
$GPRMC,114712,A,5633.7636,N,00346.3726,W,5.2018,229.336,210511,,*3E
$GPGSA,A,3,05,21,15,08,07,26,10,28,27,,,,1.5,0.8,1.2*3A
$GPGSV,3,1,12,05,51,186,40,21,20,310,40,15,32,277,40,03,06,009,33*7A
$GPGSV,3,2,12,19,06,036,37,08,57,069,46,07,27,058,45,26,72,274,49*70
$GPGSV,3,3,12,10,10,153,29,28,35,126,42,27,10,229,34,124,24,193,36*4C
$GPZDA,114713.77,21,05,2011,00,00*63
$GPGGA,114713,5633.7625,N,00346.3745,W,2,09,0.80,395.61,M,51.032,M,,*5F
$GPRMC,114713,A,5633.7625,N,00346.3745,W,5.4819,229.820,210511,,*3B
$GPGSA,A,3,05,21,15,08,07,26,10,28,27,,,,1.5,0.8,1.2*3A
$GPGSV,3,1,12,05,51,186,42,21,20,310,40,15,32,277,38,03,06,009,34*70
$GPGSV,3,2,12,19,06,036,29,08,57,069,45,07,27,058,44,26,72,274,49*7D
$GPGSV,3,3,12,10,10,153,30,28,35,126,42,27,10,229,32,124,24,193,36*42
$GPZDA,114714.77,21,05,2011,00,00*64
$GPGGA,114714,5633.7612,N,00346.3773,W,2,09,0.80,395.99,M,51.032,M,,*5E
$GPRMC,114714,A,5633.7612,N,00346.3773,W,5.6776,231.296,210511,,*37
$GPGSA,A,3,05,21,15,08,07,26,10,28,27,,,,1.5,0.8,1.2*3A
$GPGSV,3,1,12,05,51,186,42,21,20,310,39,15,32,277,37,03,06,009,36*73
$GPGSV,3,2,12,19,06,036,33,08,57,069,44,07,27,058,43,26,72,274,49*70
$GPGSV,3,3,12,10,10,153,33,28,35,126,41,27,10,229,30,124,24,193,35*43
$GPZDA,114715.77,21,05,2011,00,00*65
$GPGGA,114715,5633.7602,N,00346.3791,W,2,09,0.80,397.16,M,51.032,M,,*57
$GPRMC,114715,A,5633.7602,N,00346.3791,W,5.8769,232.673,210511,,*37
$GPGSA,A,3,05,21,15,08,07,26,10,28,27,,,,1.5,0.8,1.2*3A
$GPGSV,3,1,12,05,51,186,41,21,21,309,40,15,33,277,36,03,06,009,38*79
$GPGSV,3,2,12,19,07,036,36,08,57,067,45,07,27,058,45,26,72,274,49*7D
$GPGSV,3,3,12,10,10,153,32,28,35,126,44,27,11,229,30,124,24,193,36*45
$GPZDA,114717.77,21,05,2011,00,00*67
$GPGGA,114717,5633.7582,N,00346.3838,W,2,09,0.80,397.32,M,51.032,M,,*54
$GPRMC,114717,A,5633.7582,N,00346.3838,W,5.8769,232.673,210511,,*32
$GPGSA,A,3,05,21,15,08,07,26,10,28,27,,,,1.5,0.8,1.2*3A
$GPGSV,3,1,12,05,51,186,40,21,21,309,40,15,33,277,38,03,06,009,35*7B
$GPGSV,3,2,12,19,07,036,38,08,57,067,46,07,27,058,44,26,72,274,50*79
$GPGSV,3,3,12,10,10,153,36,28,35,126,39,27,11,229,33,124,24,193,35*4B
$GPZDA,114718.77,21,05,2011,00,00*68
$GPGGA,114718,5633.7573,N,00346.3866,W,2,09,0.80,397.15,M,51.033,M,,*5A
$GPRMC,114718,A,5633.7573,N,00346.3866,W,5.8769,232.673,210511,,*38
$GPGSA,A,3,05,21,15,08,07,26,10,28,27,,,,1.5,0.8,1.2*3A
$GPGSV,3,1,12,05,51,186,39,21,21,309,40,15,33,277,40,03,06,009,32*7D
$GPGSV,3,2,12,19,07,036,38,08,57,067,46,07,27,058,45,26,72,274,50*78
$GPGSV,3,3,12,10,10,153,35,28,35,126,41,27,11,229,34,124,24,193,35*40
$GPZDA,114719.77,21,05,2011,00,00*69
$GPGGA,114719,5633.7562,N,00346.3885,W,2,09,0.80,396.10,M,51.033,M,,*52
$GPRMC,114719,A,5633.7562,N,00346.3885,W,5.6776,231.296,210511,,*38
$GPGSA,A,3,05,21,15,08,07,26,10,28,27,,,,1.5,0.8,1.2*3A
$GPGSV,3,1,12,05,51,186,42,21,21,309,40,15,33,277,39,03,06,009,31*7C
$GPGSV,3,2,12,19,07,036,41,08,57,067,48,07,27,058,46,26,72,274,50*7B
$GPGSV,3,3,12,10,10,153,36,28,35,126,43,27,11,229,38,124,24,193,33*4B
$GPZDA,114720.77,21,05,2011,00,00*63
$GPGGA,114720,5633.7550,N,00346.3903,W,2,09,0.80,396.44,M,51.033,M,,*57
$GPRMC,114720,A,5633.7550,N,00346.3903,W,5.6408,223.935,210511,,*37
$GPGSA,A,3,05,21,15,08,07,26,10,28,27,,,,1.5,0.8,1.2*3A
$GPGSV,3,1,12,05,51,186,39,21,21,309,41,15,33,277,38,03,06,009,25*75
$GPGSV,3,2,12,19,07,036,39,08,57,067,47,07,27,058,47,26,72,274,51*7B
$GPGSV,3,3,12,10,10,153,37,28,35,126,46,27,11,229,41,124,24,193,33*41
$GPZDA,114721.77,21,05,2011,00,00*62
$GPGGA,114721,5633.7539,N,00346.3922,W,2,09,0.80,395.39,M,51.033,M,,*53
$GPRMC,114721,A,5633.7539,N,00346.3922,W,5.5461,217.980,210511,,*3F
$GPGSA,A,3,05,21,15,08,07,26,10,28,27,,,,1.5,0.8,1.2*3A
$GPGSV,3,1,12,05,51,186,40,21,21,309,41,15,33,277,39,03,06,009,00*7D
$GPGSV,3,2,12,19,07,036,43,08,57,067,48,07,27,058,45,26,72,274,49*72
$GPGSV,3,3,12,10,10,153,38,28,35,126,48,27,11,229,43,124,24,193,32*43
$GPZDA,114722.77,21,05,2011,00,00*61
$GPGGA,114722,5633.7523,N,00346.3940,W,2,09,0.80,394.89,M,51.033,M,,*55
$GPRMC,114722,A,5633.7523,N,00346.3940,W,4.9614,209.500,210511,,*35
$GPGSA,A,3,05,21,15,08,07,26,10,28,27,,,,1.5,0.8,1.2*3A
$GPGSV,3,1,12,05,51,186,44,21,21,309,45,15,33,277,38,03,06,009,14*79
$GPGSV,3,2,12,19,07,036,46,08,57,067,48,07,27,058,41,26,72,274,49*73
$GPGSV,3,3,12,10,10,153,40,28,35,126,47,27,11,229,43,124,24,193,32*43
$GPZDA,114723.77,21,05,2011,00,00*60
$GPGGA,114723,5633.7515,N,00346.3949,W,2,09,0.80,394.65,M,51.033,M,,*5A
$GPRMC,114723,A,5633.7515,N,00346.3949,W,4.7921,200.775,210511,,*36
$GPGSA,A,3,05,21,15,08,07,26,10,28,27,,,,1.5,0.8,1.2*3A
$GPGSV,3,1,12,05,51,186,48,21,21,309,44,15,33,277,40,03,06,009,30*7D
$GPGSV,3,2,12,19,07,036,49,08,57,067,47,07,27,058,37,26,72,274,48*73
$GPGSV,3,3,12,10,10,153,41,28,35,126,46,27,11,229,41,124,24,193,32*41
$GPZDA,114724.77,21,05,2011,00,00*67
$GPGGA,114724,5633.7500,N,00346.3958,W,2,09,0.80,394.11,M,51.033,M,,*5A
$GPRMC,114724,A,5633.7500,N,00346.3958,W,5.6773,186.737,210511,,*37
$GPGSA,A,3,05,21,15,08,07,26,10,28,27,,,,1.5,0.8,1.2*3A
$GPGSV,3,1,12,05,51,186,49,21,21,309,40,15,33,277,40,03,06,009,37*7F
$GPGSV,3,2,12,19,07,036,44,08,57,067,47,07,27,058,39,26,72,274,49*71
$GPGSV,3,3,12,10,10,153,38,28,35,126,43,27,11,229,42,124,24,193,33*48
$GPZDA,114725.77,21,05,2011,00,00*66
$GPGGA,114725,5633.7481,N,00346.3956,W,2,09,0.80,394.09,M,51.033,M,,*54
$GPRMC,114725,A,5633.7481,N,00346.3956,W,7.3490,174.987,210511,,*31
$GPGSA,A,3,05,21,15,08,07,26,10,28,27,,,,1.5,0.8,1.2*3A
$GPGSV,3,1,12,05,51,186,48,21,21,309,39,15,33,277,39,03,06,009,40*7E
$GPGSV,3,2,12,19,07,036,38,08,57,067,48,07,27,058,40,26,72,274,50*73
$GPGSV,3,3,12,10,10,153,37,28,35,126,46,27,11,229,43,124,24,193,33*43
$GPZDA,114726.77,21,05,2011,00,00*65
$GPGGA,114726,5633.7458,N,00346.3954,W,2,09,0.80,393.24,M,51.033,M,,*59
$GPRMC,114726,A,5633.7458,N,00346.3954,W,8.2530,171.814,210511,,*3F
$GPGSA,A,3,05,21,15,08,07,26,10,28,27,,,,1.5,0.8,1.2*3A
$GPGSV,3,1,12,05,51,186,49,21,21,309,39,15,33,277,38,03,06,009,39*70
$GPGSV,3,2,12,19,07,036,38,08,57,067,49,07,27,058,40,26,72,274,50*72
$GPGSV,3,3,12,10,10,153,37,28,35,126,42,27,11,229,43,124,24,193,33*47
$GPZDA,114727.77,21,05,2011,00,00*64
$GPGGA,114727,5633.7436,N,00346.3942,W,2,09,0.80,392.35,M,51.033,M,,*56
$GPRMC,114727,A,5633.7436,N,00346.3942,W,9.1260,172.298,210511,,*3C
$GPGSA,A,3,05,21,15,08,07,26,10,28,27,,,,1.5,0.8,1.2*3A
$GPGSV,3,1,12,05,51,186,48,21,21,309,38,15,33,277,38,03,06,009,43*7D
$GPGSV,3,2,12,19,07,036,38,08,57,067,48,07,27,058,43,26,72,274,49*78
$GPGSV,3,3,12,10,10,153,38,28,35,126,42,27,11,229,42,124,24,193,29*42
$GPZDA,114728.77,21,05,2011,00,00*6B
$GPGGA,114728,5633.7405,N,00346.3939,W,2,09,0.80,392.59,M,51.033,M,,*5F
$GPRMC,114728,A,5633.7405,N,00346.3939,W,11.2274,171.923,210511,,*08
$GPGSA,A,3,05,21,15,08,07,26,10,28,27,,,,1.5,0.8,1.2*3A
$GPGSV,3,1,12,05,51,186,49,21,21,309,37,15,33,277,40,03,06,009,45*7A
$GPGSV,3,2,12,19,07,036,37,08,57,067,46,07,27,058,41,26,72,274,50*73
$GPGSV,3,3,12,10,10,153,39,28,35,126,41,27,11,229,42,124,24,193,30*48
$GPZDA,114729.77,21,05,2011,00,00*6A
$GPGGA,114729,5633.7371,N,00346.3926,W,2,09,0.80,391.97,M,51.033,M,,*55
$GPRMC,114729,A,5633.7371,N,00346.3926,W,12.4358,172.415,210511,,*02
$GPGSA,A,3,05,21,15,08,07,26,10,28,27,,,,1.5,0.8,1.2*3A
$GPGSV,3,1,12,05,51,186,49,21,21,309,39,15,33,277,38,03,06,009,43*7D
$GPGSV,3,2,12,19,07,036,38,08,57,067,46,07,27,058,40,26,72,274,49*75
$GPGSV,3,3,12,10,10,153,37,28,35,126,43,27,11,229,42,124,24,193,33*47
$GPZDA,114730.77,21,05,2011,00,00*62
$GPGGA,114730,5633.7337,N,00346.3923,W,2,09,0.80,391.38,M,51.033,M,,*5F
$GPRMC,114730,A,5633.7337,N,00346.3923,W,13.1067,172.665,210511,,*03
$GPGSA,A,3,05,21,15,08,07,26,10,28,27,,,,1.5,0.8,1.2*3A
$GPGSV,3,1,12,05,51,186,49,21,21,309,40,15,33,277,38,03,06,009,42*72
$GPGSV,3,2,12,19,07,036,40,08,57,067,47,07,27,058,40,26,72,274,50*73
$GPGSV,3,3,12,10,10,153,37,28,35,126,43,27,11,229,41,124,24,193,31*46
$GPZDA,114731.77,21,05,2011,00,00*63
$GPGGA,114731,5633.7303,N,00346.3910,W,2,09,0.80,390.76,M,51.033,M,,*52
$GPRMC,114731,A,5633.7303,N,00346.3910,W,13.5499,174.900,210511,,*0E
$GPGSA,A,3,05,21,15,08,07,26,10,28,27,,,,1.5,0.8,1.2*3A
$GPGSV,3,1,12,05,51,186,48,21,21,309,40,15,33,277,37,03,06,009,41*7F
$GPGSV,3,2,12,19,07,036,41,08,57,067,50,07,27,058,40,26,72,274,49*7C
$GPGSV,3,3,12,10,10,153,39,28,35,126,42,27,11,229,40,124,24,193,27*4F
$GPZDA,114732.77,21,05,2011,00,00*60
$GPGGA,114732,5633.7261,N,00346.3906,W,2,09,0.80,389.88,M,51.033,M,,*5A
$GPRMC,114732,A,5633.7261,N,00346.3906,W,13.7468,175.920,210511,,*00
$GPGSA,A,3,05,21,15,08,07,26,10,28,27,,,,1.5,0.8,1.2*3A
$GPGSV,3,1,12,05,51,186,48,21,21,309,39,15,33,277,39,03,06,009,39*70
$GPGSV,3,2,12,19,07,036,41,08,57,067,49,07,27,058,40,26,72,274,49*74
$GPGSV,3,3,12,10,10,153,40,28,35,126,43,27,11,229,37,124,24,193,15*41
$GPZDA,114733.77,21,05,2011,00,00*61
$GPGGA,114733,5633.7222,N,00346.3902,W,2,09,0.80,389.84,M,51.033,M,,*54
$GPRMC,114733,A,5633.7222,N,00346.3902,W,14.2844,176.920,210511,,*01
$GPGSA,A,3,05,21,15,08,07,26,10,28,27,,,,1.5,0.8,1.2*3A
$GPGSV,3,1,12,05,51,186,49,21,21,309,40,15,33,277,38,03,06,009,36*71
$GPGSV,3,2,12,19,07,036,41,08,57,067,48,07,27,058,40,26,72,274,50*7D
$GPGSV,3,3,12,10,10,153,41,28,35,126,36,27,11,229,35,124,24,193,31*46
$GPZDA,114734.77,21,05,2011,00,00*66
$GPGGA,114734,5633.7183,N,00346.3898,W,2,09,0.80,389.80,M,51.033,M,,*5D
$GPRMC,114734,A,5633.7183,N,00346.3898,W,14.8262,177.847,210511,,*09
$GPGSA,A,3,05,21,15,08,07,26,10,28,27,,,,1.5,0.8,1.2*3A
$GPGSV,3,1,12,05,51,186,49,21,21,309,40,15,33,277,38,03,06,009,33*74
$GPGSV,3,2,12,19,07,036,43,08,57,067,48,07,27,058,39,26,72,274,50*71
$GPGSV,3,3,12,10,10,153,41,28,35,126,42,27,11,229,32,124,24,193,29*4B
$GPZDA,114735.77,21,05,2011,00,00*67
$GPGGA,114735,5633.7137,N,00346.3894,W,2,09,0.80,389.48,M,51.033,M,,*5B
$GPRMC,114735,A,5633.7137,N,00346.3894,W,14.9662,178.796,210511,,*02
$GPGSA,A,3,05,21,15,08,07,26,10,28,27,,,,1.5,0.8,1.2*3A
$GPGSV,3,1,12,05,51,186,49,21,21,309,40,15,33,277,38,03,06,009,34*73
$GPGSV,3,2,12,19,07,036,43,08,57,067,44,07,27,058,39,26,72,274,50*7D
$GPGSV,3,3,12,10,10,153,41,28,35,126,42,27,11,229,33,124,24,193,32*40
$GPZDA,114736.77,21,05,2011,00,00*64
$GPGGA,114736,5633.7093,N,00346.3899,W,2,09,0.80,390.03,M,51.033,M,,*5D
$GPRMC,114736,A,5633.7093,N,00346.3899,W,15.8648,180.442,210511,,*06
$GPGSA,A,3,05,21,15,08,07,26,10,28,27,,,,1.5,0.8,1.2*3A
$GPGSV,3,1,12,05,51,186,48,21,21,309,41,15,33,277,38,03,06,009,37*70
$GPGSV,3,2,12,19,07,036,46,08,57,067,43,07,27,058,38,26,72,274,50*7E
$GPGSV,3,3,12,10,10,153,32,28,35,126,42,27,11,229,34,124,24,193,34*45
$GPZDA,114737.77,21,05,2011,00,00*65
$GPGGA,114737,5633.7047,N,00346.3904,W,2,09,0.80,389.74,M,51.033,M,,*58
$GPRMC,114737,A,5633.7047,N,00346.3904,W,16.6240,183.657,210511,,*0F
$GPGSA,A,3,05,21,15,08,07,26,10,28,27,,,,1.5,0.8,1.2*3A
$GPGSV,3,1,12,05,51,186,47,21,21,309,39,15,33,277,37,03,06,009,39*71
$GPGSV,3,2,12,19,07,036,46,08,57,067,43,07,27,058,36,26,72,274,50*70
$GPGSV,3,3,12,10,10,153,26,28,35,126,40,27,11,229,35,124,24,193,32*45
$GPZDA,114738.77,21,05,2011,00,00*6A
$GPGGA,114738,5633.6996,N,00346.3909,W,2,08,0.80,390.00,M,51.033,M,,*54
$GPRMC,114738,A,5633.6996,N,00346.3909,W,17.2583,185.838,210511,,*05
$GPGSA,A,3,05,21,15,08,07,26,28,27,,,,,1.5,0.8,1.2*3B
$GPGSV,3,1,12,05,51,186,49,21,21,309,39,15,33,277,36,03,06,009,39*7E
$GPGSV,3,2,12,19,07,036,43,08,57,067,43,07,27,058,39,26,72,274,50*7A
$GPGSV,3,3,12,10,10,153,12,28,35,126,40,27,11,229,37,124,24,193,34*46
$GPZDA,114739.77,21,05,2011,00,00*6B
$GPGGA,114739,5633.6945,N,00346.3923,W,2,08,0.80,390.30,M,51.033,M,,*50
$GPRMC,114739,A,5633.6945,N,00346.3923,W,17.6338,188.838,210511,,*0D
$GPGSA,A,3,05,21,15,08,07,26,28,27,,,,,2.5,0.8,2.1*38
$GPGSV,3,1,12,05,51,186,48,21,21,309,41,15,33,277,38,03,06,009,38*7F
$GPGSV,3,2,12,19,07,036,40,08,57,067,46,07,27,058,33,26,72,274,49*7E
$GPGSV,3,3,12,10,10,153,00,28,35,126,45,27,11,229,36,124,24,193,36*43
$GPZDA,114741.77,21,05,2011,00,00*64
$GPGGA,114741,5633.6848,N,00346.3953,W,2,08,0.80,388.97,M,51.033,M,,*50
$GPRMC,114741,A,5633.6848,N,00346.3953,W,17.4719,192.264,210511,,*04
$GPGSA,A,3,05,21,15,08,07,26,28,27,,,,,2.5,0.8,2.1*38
$GPGSV,3,1,12,05,51,186,48,21,21,309,44,15,33,277,39,03,06,009,36*75
$GPGSV,3,2,12,19,07,036,34,08,57,067,48,07,27,058,40,26,72,274,48*76
$GPGSV,3,3,12,10,10,153,16,28,35,126,45,27,11,229,38,124,24,193,34*48
$GPZDA,114742.77,21,05,2011,00,00*67
$GPGGA,114742,5633.6801,N,00346.3978,W,2,08,0.80,388.75,M,51.033,M,,*5B
$GPRMC,114742,A,5633.6801,N,00346.3978,W,17.4772,193.892,210511,,*0C
$GPGSA,A,3,05,21,15,08,07,26,28,27,,,,,2.5,0.8,2.1*38
$GPGSV,3,1,12,05,51,186,49,21,21,309,43,15,33,277,39,03,06,009,31*74
$GPGSV,3,2,12,19,07,036,32,08,57,067,47,07,27,058,39,26,72,274,50*78
$GPGSV,3,3,12,10,10,153,13,28,35,126,42,27,11,229,41,124,24,193,33*43
$GPZDA,114743.77,21,05,2011,00,00*66
$GPGGA,114743,5633.6754,N,00346.3993,W,2,08,0.80,388.50,M,51.033,M,,*57
$GPRMC,114743,A,5633.6754,N,00346.3993,W,17.4772,193.892,210511,,*07
$GPGSA,A,3,05,21,15,08,07,26,28,27,,,,,2.5,0.8,2.1*38
$GPGSV,3,1,12,05,51,186,49,21,21,309,42,15,33,277,38,03,06,009,31*74
$GPGSV,3,2,12,19,07,036,34,08,57,067,44,07,27,058,42,26,72,274,50*71
$GPGSV,3,3,12,10,10,153,00,28,35,126,42,27,11,229,40,124,24,193,33*40
$GPZDA,114744.77,21,05,2011,00,00*61
$GPGGA,114744,5633.6707,N,00346.4018,W,2,08,0.80,388.29,M,51.033,M,,*55
$GPRMC,114744,A,5633.6707,N,00346.4018,W,17.4772,193.892,210511,,*0B
$GPGSA,A,3,05,21,15,08,07,26,28,27,,,,,2.5,0.8,2.1*38
$GPGSV,3,1,12,05,51,186,47,21,21,309,44,15,33,277,37,03,06,009,36*74
$GPGSV,3,2,12,19,07,036,31,08,57,067,45,07,27,058,42,26,72,274,50*75
$GPGSV,3,3,12,10,10,153,00,28,35,126,43,27,11,229,40,124,24,193,32*40
$GPZDA,114745.77,21,05,2011,00,00*60
$GPGGA,114745,5633.6660,N,00346.4042,W,2,08,0.80,388.07,M,51.033,M,,*57
$GPRMC,114745,A,5633.6660,N,00346.4042,W,17.6256,195.401,210511,,*04
$GPGSA,A,3,05,21,15,08,07,26,28,27,,,,,2.5,0.8,2.1*38
$GPGSV,3,1,12,05,51,186,45,21,21,309,45,15,33,277,36,03,06,009,35*75
$GPGSV,3,2,12,19,07,036,26,08,57,067,45,07,27,058,46,26,72,274,50*77
$GPGSV,3,3,12,10,10,153,00,28,35,126,45,27,11,229,39,124,24,193,33*49
$GPGSV,3,1,12,05,51,186,45,21,21,309,45,15,33,277,38,03,06,007,37*77
$GPGSV,3,2,12,19,07,036,00,08,56,067,46,07,26,058,45,26,72,274,50*73
$GPGSV,3,3,12,10,10,153,00,28,35,126,46,27,11,229,39,124,24,193,32*4B
$GPZDA,114747.77,21,05,2011,00,00*62
$GPGGA,114747,5633.6567,N,00346.4092,W,2,08,0.80,386.26,M,51.033,M,,*51
$GPRMC,114747,A,5633.6567,N,00346.4092,W,18.0540,200.742,210511,,*0D
$GPGSA,A,3,05,21,15,08,07,26,28,27,,,,,2.6,0.8,2.1*3B
$GPGSV,3,1,12,05,51,186,44,21,21,309,46,15,33,277,37,03,06,007,35*78
$GPGSV,3,2,12,19,07,036,00,08,56,067,46,07,26,058,46,26,72,274,50*70
$GPGSV,3,3,12,10,10,153,00,28,35,126,46,27,11,229,41,124,24,193,32*44
$GPZDA,114748.77,21,05,2011,00,00*6D
$GPGGA,114748,5633.6519,N,00346.4127,W,2,08,0.80,386.08,M,51.033,M,,*54
$GPRMC,114748,A,5633.6519,N,00346.4127,W,17.8942,202.719,210511,,*01
$GPGSA,A,3,05,21,15,08,07,26,28,27,,,,,2.6,0.8,2.1*3B
$GPGSV,3,1,12,05,51,186,46,21,21,309,45,15,33,277,37,03,06,007,33*7F
$GPGSV,3,2,12,19,07,036,00,08,56,067,46,07,26,058,44,26,72,274,49*7A
$GPGSV,3,3,12,10,10,153,00,28,35,126,46,27,11,229,41,124,24,193,32*44
$GPZDA,114749.77,21,05,2011,00,00*6C
$GPGGA,114749,5633.6472,N,00346.4161,W,2,08,0.80,385.90,M,51.033,M,,*59
$GPRMC,114749,A,5633.6472,N,00346.4161,W,17.7896,202.015,210511,,*02
$GPGSA,A,3,05,21,15,08,07,26,28,27,,,,,2.6,0.8,2.1*3B
$GPGSV,3,1,12,05,51,186,47,21,21,309,44,15,33,277,38,03,06,007,23*71
$GPGSV,3,2,12,19,07,036,00,08,56,067,47,07,26,058,41,26,72,274,50*76
$GPGSV,3,3,12,10,10,153,00,28,35,126,46,27,11,229,41,124,24,193,31*47
$GPZDA,114750.77,21,05,2011,00,00*64
$GPGGA,114750,5633.6425,N,00346.4196,W,2,08,0.80,385.72,M,51.033,M,,*57
$GPRMC,114750,A,5633.6425,N,00346.4196,W,17.9957,200.867,210511,,*0D
$GPGSA,A,3,05,21,15,08,07,26,28,27,,,,,2.6,0.8,2.1*3B
$GPGSV,3,1,12,05,51,186,44,21,21,309,44,15,33,277,37,03,06,007,00*7C
$GPGSV,3,2,12,19,07,036,00,08,56,067,48,07,26,058,42,26,72,274,50*7A
$GPGSV,3,3,12,10,10,153,00,28,35,126,45,27,11,229,39,124,24,193,29*42
$GPZDA,114751.77,21,05,2011,00,00*65
$GPGGA,114751,5633.6379,N,00346.4221,W,2,08,0.80,384.12,M,51.033,M,,*50
$GPRMC,114751,A,5633.6379,N,00346.4221,W,18.1157,199.038,210511,,*03
$GPGSA,A,3,05,21,15,08,07,26,28,27,,,,,2.6,0.8,2.1*3B
$GPGSV,3,1,12,05,51,186,47,21,21,309,43,15,33,277,38,03,06,007,28*7D
$GPGSV,3,2,12,19,07,036,00,08,56,067,48,07,26,058,43,26,72,274,50*7B
$GPGSV,3,3,12,10,10,153,00,28,35,126,45,27,11,229,41,124,24,193,28*4C
$GPGSV,3,1,12,05,51,186,49,21,21,309,45,15,33,277,40,03,06,007,30*73
$GPGSV,3,2,12,19,07,036,00,08,56,067,47,07,26,058,35,26,72,274,50*75
$GPGSV,3,3,12,10,10,153,00,28,35,126,44,27,11,229,40,124,24,193,29*4D
$GPZDA,114753.77,21,05,2011,00,00*67
$GPGGA,114753,5633.6282,N,00346.4271,W,2,08,0.80,382.86,M,51.033,M,,*59
$GPRMC,114753,A,5633.6282,N,00346.4271,W,17.8667,191.142,210511,,*07
$GPGSA,A,3,05,21,15,08,07,26,28,27,,,,,2.6,0.8,2.1*3B
$GPGSV,3,1,12,05,51,186,48,21,21,309,42,15,33,277,37,03,06,007,29*7D
$GPGSV,3,2,12,19,07,036,00,08,56,067,46,07,26,058,32,26,72,274,50*73
$GPGSV,3,3,12,10,10,153,30,28,35,126,42,27,11,229,42,124,24,193,31*43
$GPZDA,114754.77,21,05,2011,00,00*60
$GPGGA,114754,5633.6232,N,00346.4286,W,2,09,0.80,381.77,M,51.033,M,,*51
$GPRMC,114754,A,5633.6232,N,00346.4286,W,17.4888,184.963,210511,,*0F
$GPGSA,A,3,05,21,15,08,07,26,10,28,27,,,,2.6,0.8,2.1*3A
$GPGSV,3,1,12,05,51,186,51,21,21,309,39,15,33,277,39,03,06,007,35*7A
$GPGSV,3,2,12,19,07,036,00,08,56,067,46,07,26,058,32,26,72,274,50*73
$GPGSV,3,3,12,10,10,153,37,28,35,126,40,27,11,229,42,124,24,193,33*44
$GPZDA,114755.77,21,05,2011,00,00*61
$GPGGA,114755,5633.6185,N,00346.4291,W,2,09,0.80,381.49,M,51.033,M,,*54
$GPRMC,114755,A,5633.6185,N,00346.4291,W,17.1969,179.386,210511,,*0F
$GPGSA,A,3,05,21,15,08,07,26,10,28,27,,,,1.5,0.8,1.2*3A
$GPGSV,3,1,12,05,51,186,50,21,21,309,38,15,33,277,40,03,06,007,38*79
$GPGSV,3,2,12,19,07,036,00,08,56,067,46,07,26,058,35,26,72,274,50*74
$GPGSV,3,3,12,10,10,153,38,28,35,126,42,27,11,229,42,124,24,193,35*4F
$GPZDA,114756.77,21,05,2011,00,00*62
$GPGGA,114756,5633.6142,N,00346.4286,W,2,09,0.80,382.00,M,51.033,M,,*54
$GPRMC,114756,A,5633.6142,N,00346.4286,W,17.2507,176.111,210511,,*05
$GPGSA,A,3,05,21,15,08,07,26,10,28,27,,,,1.5,0.8,1.2*3A
$GPGSV,3,1,12,05,51,186,49,21,21,309,37,15,33,277,38,03,06,007,30*79
$GPGSV,3,2,12,19,07,036,00,08,56,067,50,07,26,058,36,26,72,274,49*78
$GPGSV,3,3,12,10,10,153,36,28,35,126,44,27,11,229,41,124,24,193,34*45
$GPZDA,114757.77,21,05,2011,00,00*63
$GPGGA,114757,5633.6088,N,00346.4281,W,2,09,0.80,381.39,M,51.033,M,,*5C
$GPRMC,114757,A,5633.6088,N,00346.4281,W,17.6261,172.975,210511,,*09
$GPGSA,A,3,05,21,15,08,07,26,10,28,27,,,,1.5,0.8,1.2*3A
$GPGSV,3,1,12,05,51,186,50,21,21,309,36,15,33,277,39,03,06,007,24*74
$GPGSV,3,2,12,19,07,036,00,08,56,067,46,07,26,058,35,26,72,274,49*7C
$GPGSV,3,3,12,10,10,153,37,28,35,126,44,27,11,229,40,124,24,193,34*45
$GPGSV,3,1,12,05,51,186,50,21,21,309,36,15,33,277,39,03,06,007,20*70
$GPGSV,3,2,12,19,07,036,00,08,56,067,46,07,26,058,36,26,72,274,49*7F
$GPGSV,3,3,12,10,10,153,37,28,35,126,40,27,11,229,40,124,24,193,35*40
$GPZDA,114759.77,21,05,2011,00,00*6D
$GPGGA,114759,5633.5996,N,00346.4253,W,2,09,0.80,380.67,M,51.033,M,,*52
$GPRMC,114759,A,5633.5996,N,00346.4253,W,18.0247,170.744,210511,,*0E
$GPGSA,A,3,05,21,15,08,07,26,10,28,27,,,,1.5,0.8,1.2*3A
$GPGSV,3,1,12,05,51,186,50,21,21,309,35,15,33,277,38,03,06,007,00*70
$GPGSV,3,2,12,19,07,036,00,08,56,067,46,07,26,058,38,26,72,274,49*71
$GPGSV,3,3,12,10,10,153,37,28,35,126,41,27,11,229,40,124,24,193,34*40
$GPZDA,114800.77,21,05,2011,00,00*6E
$GPGGA,114800,5633.5943,N,00346.4238,W,2,09,0.80,380.03,M,51.033,M,,*56
$GPRMC,114800,A,5633.5943,N,00346.4238,W,18.0828,169.214,210511,,*03
$GPGSA,A,3,05,21,15,08,07,26,10,28,27,,,,1.5,0.8,1.2*3A
$GPGSV,3,1,12,05,51,186,50,21,21,309,33,15,33,277,36,03,06,007,00*78
$GPGSV,3,2,12,19,07,036,00,08,56,067,46,07,26,058,38,26,72,274,49*71
$GPGSV,3,3,12,10,10,153,31,28,35,126,42,27,11,229,39,124,24,193,32*4D
$GPZDA,114801.77,21,05,2011,00,00*6F
$GPGGA,114801,5633.5893,N,00346.4213,W,2,09,0.80,380.18,M,51.033,M,,*58
$GPRMC,114801,A,5633.5893,N,00346.4213,W,18.1166,168.453,210511,,*01
$GPGSA,A,3,05,21,15,08,07,26,10,28,27,,,,1.5,0.8,1.2*3A
$GPGSV,3,1,12,05,51,186,50,21,21,309,29,15,33,277,30,03,06,007,00*75
$GPGSV,3,2,12,19,07,036,00,08,56,067,46,07,26,058,39,26,72,274,49*70
$GPGSV,3,3,12,10,10,153,28,28,35,126,44,27,11,229,39,124,24,193,34*45
$GPZDA,114802.77,21,05,2011,00,00*6C
$GPGGA,114802,5633.5847,N,00346.4199,W,2,09,0.80,379.82,M,51.033,M,,*56
$GPRMC,114802,A,5633.5847,N,00346.4199,W,18.2372,166.188,210511,,*03
$GPGSA,A,3,05,21,15,08,07,26,10,28,27,,,,1.5,0.8,1.2*3A
$GPGSV,3,1,12,05,51,186,50,21,21,309,27,15,33,277,27,03,06,007,00*7D
$GPGSV,3,2,12,19,07,036,00,08,56,067,46,07,26,058,40,26,72,274,49*7E
$GPGSV,3,3,12,10,10,153,38,28,35,126,44,27,11,229,39,124,24,193,31*41
$GPZDA,114803.77,21,05,2011,00,00*6D
$GPGGA,114803,5633.5797,N,00346.4174,W,2,07,1.20,379.98,M,51.033,M,,*58
$GPRMC,114803,A,5633.5797,N,00346.4174,W,18.1340,164.576,210511,,*06
$GPGSA,A,3,05,08,07,26,10,28,27,,,,,,1.5,1.2,1.2*36
$GPGSV,3,1,12,05,51,186,49,21,21,309,29,15,33,277,31,03,06,007,00*7C
$GPGSV,3,2,12,19,07,036,00,08,56,067,44,07,26,058,39,26,72,274,50*7A
$GPGSV,3,3,12,10,10,153,37,28,35,126,44,27,11,229,39,124,24,193,30*4F
$GPZDA,114805.77,21,05,2011,00,00*6B
$GPGGA,114805,5633.5698,N,00346.4116,W,2,09,0.80,378.86,M,51.033,M,,*5F
$GPRMC,114805,A,5633.5698,N,00346.4116,W,18.5147,164.071,210511,,*09
$GPGSA,A,3,05,21,15,08,07,26,10,28,27,,,,3.3,0.8,2.8*37
$GPGSV,3,1,12,05,51,186,50,21,21,309,30,15,33,277,34,03,06,007,00*79
$GPGSV,3,2,12,19,07,036,00,08,56,067,46,07,26,058,39,26,72,274,50*78
$GPGSV,3,3,12,10,10,153,35,28,35,126,42,27,11,229,37,124,24,193,32*47
$GPZDA,114806.77,21,05,2011,00,00*68
$GPGGA,114806,5633.5649,N,00346.4082,W,2,09,0.80,378.98,M,51.033,M,,*53
$GPRMC,114806,A,5633.5649,N,00346.4082,W,18.7913,165.028,210511,,*0C
$GPGSA,A,3,05,21,15,08,07,26,10,28,27,,,,1.5,0.8,1.2*3A
$GPGSV,3,1,12,05,51,186,49,21,21,309,28,15,33,277,27,03,06,007,00*7A
$GPGSV,3,2,12,19,07,036,00,08,56,067,45,07,26,058,38,26,72,274,50*7A
$GPGSV,3,3,12,10,10,153,34,28,35,126,40,27,11,229,36,124,24,193,29*4F
$GPZDA,114807.77,21,05,2011,00,00*69
$GPGGA,114807,5633.5598,N,00346.4057,W,2,08,0.80,379.14,M,51.033,M,,*51
$GPRMC,114807,A,5633.5598,N,00346.4057,W,19.1707,164.531,210511,,*0A
$GPGSA,A,3,05,21,08,07,26,10,28,27,,,,,1.5,0.8,1.2*3E
$GPGSV,3,1,12,05,51,186,49,21,21,309,28,15,33,277,30,03,06,007,00*7C
$GPGSV,3,2,12,19,07,036,00,08,56,067,44,07,26,058,38,26,72,274,50*7B
$GPGSV,3,3,12,10,10,153,28,28,35,126,46,27,11,229,38,124,24,193,16*46
$GPZDA,114808.77,21,05,2011,00,00*66
$GPGGA,114808,5633.5548,N,00346.4033,W,2,08,1.00,379.29,M,51.033,M,,*56
$GPRMC,114808,A,5633.5548,N,00346.4033,W,19.4031,166.152,210511,,*0E
$GPGSA,A,3,05,15,08,07,26,10,28,27,,,,,2.6,1.0,2.1*30
$GPGSV,3,1,12,05,51,186,49,21,21,309,37,15,33,277,38,03,06,007,00*7A
$GPGSV,3,2,12,19,07,036,00,08,56,067,43,07,26,058,33,26,72,274,50*77
$GPGSV,3,3,12,10,10,153,08,28,35,126,46,27,11,229,38,124,24,193,32*42
$GPGSV,3,1,12,05,51,186,50,21,21,309,42,15,33,277,38,03,06,007,00*70
$GPGSV,3,2,12,19,07,036,00,08,56,067,46,07,26,058,34,26,72,274,50*75
$GPGSV,3,3,12,10,10,153,00,28,35,126,45,27,11,229,34,124,24,193,30*47
$GPZDA,114811.77,21,05,2011,00,00*6E
$GPGGA,114811,5633.5382,N,00346.4028,W,2,08,0.80,374.45,M,51.033,M,,*5A
$GPRMC,114811,A,5633.5382,N,00346.4028,W,19.6395,186.981,210511,,*0B
$GPGSA,A,3,05,21,15,08,07,26,28,27,,,,,2.6,0.8,2.1*3B
$GPGSV,3,1,12,05,51,186,47,21,21,309,41,15,33,277,38,03,06,007,00*75
$GPGSV,3,2,12,19,07,036,00,08,56,067,49,07,26,058,38,26,72,274,51*77
$GPGSV,3,3,12,10,10,153,00,28,35,126,45,27,11,229,37,124,24,193,27*42
$GPZDA,114812.77,21,05,2011,00,00*6D
$GPGGA,114812,5633.5330,N,00346.4042,W,2,08,0.80,372.53,M,51.033,M,,*5D
$GPRMC,114812,A,5633.5330,N,00346.4042,W,20.0887,194.618,210511,,*05
$GPGSA,A,3,05,21,15,08,07,26,28,27,,,,,2.6,0.8,2.1*3B
$GPGSV,3,1,12,05,51,186,41,21,21,309,42,15,33,277,42,03,06,007,00*7D
$GPGSV,3,2,12,19,07,036,00,08,56,067,50,07,26,058,38,26,72,274,51*7F
$GPGSV,3,3,12,10,10,153,00,28,35,126,43,27,11,229,40,124,24,193,28*4B
$GPZDA,114813.77,21,05,2011,00,00*6C
$GPGGA,114813,5633.5275,N,00346.4076,W,2,08,0.80,372.07,M,51.033,M,,*5A
$GPRMC,114813,A,5633.5275,N,00346.4076,W,20.5128,202.303,210511,,*09
$GPGSA,A,3,05,21,15,08,07,26,28,27,,,,,2.6,0.8,2.1*3B
$GPGSV,3,1,12,05,51,186,42,21,21,309,37,15,33,277,42,03,06,007,00*7C
$GPGSV,3,2,12,19,07,036,00,08,56,067,48,07,26,058,43,26,72,274,50*7B
$GPGSV,3,3,12,10,10,153,00,28,35,126,43,27,11,229,39,124,24,193,28*45
$GPZDA,114814.77,21,05,2011,00,00*6B
$GPGGA,114814,5633.5221,N,00346.4130,W,2,08,0.80,370.29,M,51.033,M,,*51
$GPRMC,114814,A,5633.5221,N,00346.4130,W,20.5785,211.624,210511,,*0F
$GPGSA,A,3,05,21,15,08,07,26,28,27,,,,,2.6,0.8,2.1*3B
$GPGSV,3,1,12,05,51,186,43,21,21,309,37,15,33,277,41,03,06,007,00*7E
$GPGSV,3,2,12,19,07,036,00,08,56,067,47,07,26,058,44,26,72,274,50*73
$GPGSV,3,3,12,10,10,153,00,28,35,126,40,27,11,229,38,124,24,193,28*47
$GPZDA,114815.77,21,05,2011,00,00*6A
$GPGGA,114815,5633.5177,N,00346.4204,W,2,08,0.80,369.71,M,51.033,M,,*51
$GPRMC,114815,A,5633.5177,N,00346.4204,W,20.7277,222.811,210511,,*08
$GPGSA,A,3,05,21,15,08,07,26,28,27,,,,,2.6,0.8,2.1*3B
$GPGSV,3,1,12,05,51,186,45,21,21,309,36,15,33,277,39,03,06,007,00*76
$GPGSV,3,2,12,19,07,036,00,08,56,067,45,07,26,058,42,26,72,274,50*77
$GPGSV,3,3,12,10,10,153,00,28,35,126,35,27,11,229,38,124,24,193,30*4C
$GPZDA,114816.77,21,05,2011,00,00*69
$GPGGA,114816,5633.5141,N,00346.4280,W,2,08,0.80,368.03,M,51.034,M,,*58
$GPRMC,114816,A,5633.5141,N,00346.4280,W,20.0497,232.748,210511,,*0F
$GPGSA,A,3,05,21,15,08,07,26,28,27,,,,,2.6,0.8,2.1*3B
$GPGSV,3,1,12,05,51,184,46,21,21,309,35,15,33,277,40,03,06,007,00*7A
$GPGSV,3,2,12,19,07,036,00,08,56,067,42,07,26,058,40,26,73,274,50*73
$GPGSV,3,3,12,10,10,153,00,28,36,126,36,27,11,229,38,124,24,193,27*4A
$GPZDA,114817.77,21,05,2011,00,00*68
$GPGGA,114817,5633.5109,N,00346.4365,W,2,08,0.80,367.22,M,51.034,M,,*53
$GPRMC,114817,A,5633.5109,N,00346.4365,W,19.3408,242.177,210511,,*0A
$GPGSA,A,3,05,21,15,08,07,26,28,27,,,,,2.5,0.8,2.1*38
$GPGSV,3,1,12,05,51,184,47,21,21,309,31,15,33,277,42,03,06,007,00*7D
$GPGSV,3,2,12,19,07,036,00,08,56,067,39,07,26,058,42,26,73,274,50*7D
$GPGSV,3,3,12,10,10,153,00,28,36,126,40,27,11,229,39,124,24,193,25*48
$GPZDA,114818.77,21,05,2011,00,00*67
$GPGGA,114818,5633.5091,N,00346.4461,W,2,08,0.80,367.01,M,51.034,M,,*5E
$GPRMC,114818,A,5633.5091,N,00346.4461,W,19.6110,252.974,210511,,*05
$GPGSA,A,3,05,21,15,08,07,26,28,27,,,,,2.5,0.8,2.1*38
$GPGSV,3,1,12,05,51,184,41,21,21,309,36,15,33,277,38,03,06,007,00*71
$GPGSV,3,2,12,19,07,036,00,08,56,067,40,07,26,058,38,26,73,274,49*76
$GPGSV,3,3,12,10,10,153,00,28,36,126,44,27,11,229,36,124,24,193,26*40
$GPZDA,114819.77,21,05,2011,00,00*66
$GPGGA,114819,5633.5080,N,00346.4567,W,2,08,0.80,367.12,M,51.034,M,,*5A
$GPRMC,114819,A,5633.5080,N,00346.4567,W,20.0117,265.926,210511,,*0B
$GPGSA,A,3,05,21,15,08,07,26,28,27,,,,,2.5,0.8,2.1*38
$GPGSV,3,1,12,05,51,184,42,21,21,309,38,15,33,277,33,03,06,007,00*77
$GPGSV,3,2,12,19,07,036,00,08,56,067,38,07,26,058,35,26,73,274,48*75
$GPGSV,3,3,12,10,10,153,00,28,36,126,48,27,11,229,31,124,24,193,27*4A
$GPZDA,114820.77,21,05,2011,00,00*6C
$GPGGA,114820,5633.5086,N,00346.4666,W,2,08,0.80,366.39,M,51.034,M,,*5C
$GPRMC,114820,A,5633.5086,N,00346.4666,W,20.6075,280.701,210511,,*06
$GPGSA,A,3,05,21,15,08,07,26,28,27,,,,,2.5,0.8,2.1*38
$GPGSV,3,1,12,05,51,184,48,21,21,309,43,15,33,277,37,03,06,007,00*75
$GPGSV,3,2,12,19,07,036,00,08,56,067,40,07,26,058,40,26,73,274,46*76
$GPGSV,3,3,12,10,10,153,00,28,36,126,45,27,11,229,28,124,24,193,29*41
$GPZDA,114821.77,21,05,2011,00,00*6D
$GPGGA,114821,5633.5107,N,00346.4766,W,2,08,0.80,366.22,M,51.034,M,,*5E
$GPRMC,114821,A,5633.5107,N,00346.4766,W,20.9100,291.258,210511,,*0B
$GPGSA,A,3,05,21,15,08,07,26,28,27,,,,,2.5,0.8,2.1*38
$GPGSV,3,1,12,05,51,184,45,21,21,309,42,15,33,277,43,03,06,007,00*7A
$GPGSV,3,2,12,19,07,036,00,08,56,067,42,07,26,058,44,26,73,274,46*70
$GPGSV,3,3,12,10,10,153,00,28,36,126,45,27,11,229,28,124,24,193,31*48
$GPZDA,114823.77,21,05,2011,00,00*6F
$GPGGA,114823,5633.5170,N,00346.4958,W,2,08,0.80,364.48,M,51.035,M,,*50
$GPRMC,114823,A,5633.5170,N,00346.4958,W,21.1200,303.981,210511,,*05
$GPGSA,A,3,05,21,15,08,07,26,28,27,,,,,2.5,0.8,2.1*38
$GPGSV,3,1,12,05,51,184,47,21,21,309,42,15,33,277,43,03,06,007,00*78
$GPGSV,3,2,12,19,07,036,00,08,56,067,42,07,26,058,45,26,73,274,47*70
$GPGSV,3,3,12,10,10,153,00,28,36,126,46,27,11,229,32,124,24,193,30*41
$GPZDA,114824.77,21,05,2011,00,00*68
$GPGGA,114824,5633.5208,N,00346.5041,W,2,08,0.80,363.43,M,51.035,M,,*57
$GPRMC,114824,A,5633.5208,N,00346.5041,W,21.0028,304.684,210511,,*0A
$GPGSA,A,3,05,21,15,08,07,26,28,27,,,,,2.5,0.8,2.1*38
$GPGSV,3,1,12,05,51,184,48,21,21,309,41,15,33,277,45,03,06,007,00*72
$GPGSV,3,2,12,19,07,036,00,08,56,067,42,07,26,058,45,26,73,274,46*71
$GPGSV,3,3,12,10,10,153,11,28,36,126,44,27,11,229,25,124,24,193,32*47
$GPZDA,114825.77,21,05,2011,00,00*69
$GPGGA,114825,5633.5246,N,00346.5133,W,2,07,1.20,362.41,M,51.035,M,,*5F
$GPRMC,114825,A,5633.5246,N,00346.5133,W,20.6827,304.661,210511,,*0E
$GPGSA,A,3,05,21,15,08,07,26,28,,,,,,2.5,1.2,2.1*36
$GPGSV,3,1,12,05,51,184,48,21,21,309,40,15,33,277,45,03,06,007,00*73
$GPGSV,3,2,12,19,07,036,00,08,56,067,42,07,26,058,43,26,73,274,48*79
$GPGSV,3,3,12,10,10,153,36,28,36,126,43,27,11,229,25,124,24,193,31*46
$GPZDA,114826.77,21,05,2011,00,00*6A
$GPGGA,114826,5633.5282,N,00346.5215,W,2,08,0.80,362.74,M,51.035,M,,*51
$GPRMC,114826,A,5633.5282,N,00346.5215,W,20.8314,306.238,210511,,*0D
$GPGSA,A,3,05,21,15,08,07,26,10,28,,,,,3.3,0.8,2.8*32
$GPGSV,3,1,12,05,51,184,46,21,21,309,40,15,33,277,42,03,06,007,00*7A
$GPGSV,3,2,12,19,07,036,00,08,56,067,42,07,26,058,44,26,73,274,48*7E
$GPGSV,3,3,12,10,10,153,26,28,36,126,44,27,11,229,27,124,24,193,30*43
$GPZDA,114827.77,21,05,2011,00,00*6B
$GPGGA,114827,5633.5320,N,00346.5307,W,2,07,1.20,361.72,M,51.035,M,,*5A
$GPRMC,114827,A,5633.5320,N,00346.5307,W,21.2846,306.651,210511,,*0B
$GPGSA,A,3,05,21,15,08,07,26,28,,,,,,2.5,1.2,2.1*36
$GPGSV,3,1,12,05,51,184,47,21,21,309,38,15,33,277,41,03,06,007,00*77
$GPGSV,3,2,12,19,07,036,00,08,56,067,39,07,26,058,42,26,73,274,48*74
$GPGSV,3,3,12,10,10,153,27,28,36,126,42,27,11,229,26,124,24,193,29*4D
$GPZDA,114828.77,21,05,2011,00,00*64
$GPGGA,114828,5633.5355,N,00346.5389,W,1,07,1.20,359.83,M,51.035,M,,*57
$GPRMC,114828,A,5633.5355,N,00346.5389,W,21.7389,307.047,210511,,*0D
$GPGSA,A,3,05,21,15,08,07,26,28,,,,,,3.3,1.2,2.8*38
$GPGSV,3,1,12,05,51,184,46,21,21,309,41,15,33,277,37,03,06,007,00*79
$GPGSV,3,2,12,19,07,036,00,08,56,067,40,07,26,058,43,26,73,274,48*7B
$GPGSV,3,3,12,10,10,153,23,28,36,126,41,27,11,229,26,124,24,193,30*42
$GPZDA,114829.77,21,05,2011,00,00*65
$GPGGA,114829,5633.5393,N,00346.5481,W,1,07,1.20,358.81,M,51.036,M,,*53
$GPRMC,114829,A,5633.5393,N,00346.5481,W,22.1942,307.426,210511,,*02
$GPGSA,A,3,05,21,15,08,07,26,28,,,,,,3.3,1.2,2.8*38
$GPGSV,3,1,12,05,51,184,46,21,21,309,37,15,33,277,40,03,06,007,00*78
$GPGSV,3,2,12,19,07,036,00,08,56,067,41,07,26,058,40,26,73,274,50*70
$GPGSV,3,3,12,10,10,153,00,28,36,126,40,27,11,229,24,124,24,193,30*40
$GPZDA,114830.77,21,05,2011,00,00*6D
$GPGGA,114830,5633.5431,N,00346.5564,W,1,07,1.20,357.75,M,51.036,M,,*5A
$GPRMC,114830,A,5633.5431,N,00346.5564,W,21.8741,307.444,210511,,*0C
$GPGSA,A,3,05,21,15,08,07,26,28,,,,,,3.3,1.2,2.8*38
$GPGSV,3,1,12,05,51,184,46,21,21,309,38,15,33,277,43,03,06,007,00*74
$GPGSV,3,2,12,19,07,036,00,08,56,067,37,07,26,058,41,26,73,274,50*70
$GPGSV,3,3,12,10,10,153,00,28,36,126,42,27,11,229,25,124,24,193,30*43
$GPZDA,114831.77,21,05,2011,00,00*6C
$GPGGA,114831,5633.5468,N,00346.5656,W,1,07,1.20,356.73,M,51.036,M,,*52
$GPRMC,114831,A,5633.5468,N,00346.5656,W,20.5388,306.193,210511,,*00
$GPGSA,A,3,05,21,15,08,07,26,28,,,,,,3.3,1.2,2.8*38
$GPGSV,3,1,12,05,51,184,47,21,21,309,41,15,33,277,42,03,06,007,00*7A
$GPGSV,3,2,12,19,07,036,00,08,56,067,37,07,26,058,39,26,73,274,50*7F
$GPGSV,3,3,12,10,10,153,16,28,36,126,41,27,11,229,24,124,24,193,28*4F
$GPZDA,114832.77,21,05,2011,00,00*6F
$GPGGA,114832,5633.5504,N,00346.5728,W,1,07,1.20,354.81,M,51.036,M,,*5D
$GPRMC,114832,A,5633.5504,N,00346.5728,W,18.9602,303.819,210511,,*0E
$GPGSA,A,3,05,21,15,08,07,26,28,,,,,,3.3,1.2,2.8*38
$GPGSV,3,1,12,05,51,184,46,21,21,309,39,15,33,277,44,03,06,007,00*72
$GPGSV,3,2,12,19,07,036,00,08,56,067,38,07,26,058,38,26,73,274,50*71
$GPGSV,3,3,12,10,10,153,24,28,36,126,45,27,11,229,29,124,24,193,28*47
$GPZDA,114833.77,21,05,2011,00,00*6E
$GPGGA,114833,5633.5530,N,00346.5810,W,1,08,0.80,354.02,M,51.036,M,,*50
$GPRMC,114833,A,5633.5530,N,00346.5810,W,17.9614,299.348,210511,,*09
$GPGSA,A,3,05,21,15,08,07,26,28,27,,,,,3.3,0.8,2.8*36
$GPGSV,3,1,12,05,51,184,48,21,21,309,40,15,33,277,43,03,06,007,00*75
$GPGSV,3,2,12,19,07,036,00,08,56,067,41,07,26,058,35,26,73,274,50*72
$GPGSV,3,3,12,10,10,153,16,28,36,126,44,27,11,229,34,124,24,193,27*44
$GPZDA,114834.77,21,05,2011,00,00*69
$GPGGA,114834,5633.5556,N,00346.5891,W,1,08,0.80,353.22,M,51.036,M,,*5B
$GPRMC,114834,A,5633.5556,N,00346.5891,W,18.4809,292.847,210511,,*08
$GPGSA,A,3,05,21,15,08,07,26,28,27,,,,,2.5,0.8,2.1*38
$GPGSV,3,1,12,05,51,184,45,21,21,309,33,15,33,277,38,03,06,007,00*70
$GPGSV,3,2,12,19,07,036,00,08,56,067,42,07,26,058,27,26,73,274,50*72
$GPGSV,3,3,12,10,10,153,00,28,36,126,46,27,11,229,38,124,24,193,27*4D
$GPZDA,114835.77,21,05,2011,00,00*68
$GPGGA,114835,5633.5566,N,00346.5980,W,1,07,1.20,351.90,M,51.037,M,,*56
$GPRMC,114835,A,5633.5566,N,00346.5980,W,18.9616,281.929,210511,,*0D
$GPGSA,A,3,05,21,15,08,26,28,27,,,,,,2.5,1.2,2.1*34
$GPGSV,3,1,12,05,51,184,45,21,21,309,30,15,33,277,39,03,06,007,00*72
$GPGSV,3,2,12,19,07,036,00,08,56,067,41,07,26,058,30,26,73,274,50*77
$GPGSV,3,3,12,10,10,153,00,28,36,126,44,27,11,229,40,124,24,193,26*41
$GPZDA,114836.77,21,05,2011,00,00*6B
$GPGGA,114836,5633.5572,N,00346.6079,W,1,08,0.80,351.16,M,51.037,M,,*56
$GPRMC,114836,A,5633.5572,N,00346.6079,W,19.0714,270.133,210511,,*01
$GPGSA,A,3,05,21,15,08,07,26,28,27,,,,,3.3,0.8,2.8*36
$GPGSV,3,1,12,05,51,184,45,21,21,309,24,15,33,277,40,03,06,007,00*79
$GPGSV,3,2,12,19,07,036,00,08,56,067,40,07,26,058,42,26,73,274,50*73
$GPGSV,3,3,12,10,10,153,00,28,36,126,41,27,11,229,42,124,24,193,27*47
$GPZDA,114837.76,21,05,2011,00,00*6B
$GPGGA,114837,5633.5568,N,00346.6177,W,1,07,1.00,349.31,M,51.037,M,,*59
$GPRMC,114837,A,5633.5568,N,00346.6177,W,19.9157,259.893,210511,,*04
$GPGSA,A,3,05,15,08,07,26,28,27,,,,,,2.5,1.0,2.1*32
$GPGSV,3,1,12,05,51,184,47,21,21,309,33,15,33,277,42,03,06,007,00*7F
$GPGSV,3,2,12,19,07,036,00,08,56,067,40,07,26,058,41,26,73,274,50*70
$GPGSV,3,3,12,10,10,153,26,28,36,126,43,27,11,229,42,124,24,193,28*4E
$GPZDA,114838.76,21,05,2011,00,00*64
$GPGGA,114838,5633.5555,N,00346.6274,W,1,08,0.80,348.55,M,51.037,M,,*5D
$GPRMC,114838,A,5633.5555,N,00346.6274,W,20.7132,254.873,210511,,*01
$GPGSA,A,3,05,21,15,08,07,26,28,27,,,,,3.3,0.8,2.8*36
$GPGSV,3,1,12,05,51,184,46,21,21,309,35,15,33,277,42,03,06,007,00*78
$GPGSV,3,2,12,19,07,036,00,08,56,067,42,07,26,058,40,26,73,274,51*72
$GPGSV,3,3,12,10,10,153,31,28,36,126,40,27,11,229,43,124,24,193,28*4A
$GPZDA,114839.76,21,05,2011,00,00*65
$GPGGA,114839,5633.5536,N,00346.6379,W,1,09,0.80,348.38,M,51.037,M,,*5F
$GPRMC,114839,A,5633.5536,N,00346.6379,W,21.4988,254.400,210511,,*0A
$GPGSA,A,3,05,21,15,08,07,26,10,28,27,,,,2.5,0.8,2.1*39
$GPGSV,3,1,12,05,51,184,47,21,21,309,37,15,33,277,37,03,06,007,00*79
$GPGSV,3,2,12,19,07,036,00,08,56,067,40,07,26,058,43,26,73,274,50*72
$GPGSV,3,3,12,10,10,153,32,28,36,126,44,27,11,229,38,124,24,193,31*49
$GPZDA,114841.76,21,05,2011,00,00*6A
$GPGGA,114841,5633.5499,N,00346.6592,W,1,09,0.80,345.82,M,51.038,M,,*54
$GPRMC,114841,A,5633.5499,N,00346.6592,W,21.9868,251.787,210511,,*09
$GPGSA,A,3,05,21,15,08,07,26,10,28,27,,,,1.5,0.8,1.2*3A
$GPGSV,3,1,12,05,51,184,45,21,21,309,38,15,33,277,38,03,06,007,00*7B
$GPGSV,3,2,12,19,07,036,00,08,56,067,41,07,26,058,44,26,73,274,50*74
$GPGSV,3,3,12,10,10,153,26,28,36,126,40,27,11,229,39,124,24,193,31*49
$GPZDA,114842.76,21,05,2011,00,00*69
$GPGGA,114842,5633.5474,N,00346.6697,W,1,08,0.80,343.99,M,51.038,M,,*5F
$GPRMC,114842,A,5633.5474,N,00346.6697,W,21.1548,250.035,210511,,*07
$GPGSA,A,3,05,21,15,08,07,26,28,27,,,,,1.5,0.8,1.2*3B
$GPGSV,3,1,12,05,51,184,47,21,21,309,37,15,33,277,39,03,06,007,00*77
$GPGSV,3,2,12,19,07,036,00,08,56,067,42,07,26,058,45,26,73,274,50*76
$GPGSV,3,3,12,10,10,153,24,28,36,126,44,27,11,229,37,124,24,193,30*40
$GPZDA,114843.76,21,05,2011,00,00*68
$GPGGA,114843,5633.5454,N,00346.6794,W,1,08,0.80,342.94,M,51.038,M,,*52
$GPRMC,114843,A,5633.5454,N,00346.6794,W,19.5441,248.389,210511,,*0C
$GPGSA,A,3,05,21,15,08,07,26,28,27,,,,,2.5,0.8,2.1*38
$GPGSV,3,1,12,05,51,184,47,21,21,309,38,15,33,277,39,03,06,007,00*78
$GPGSV,3,2,12,19,07,036,00,08,56,067,43,07,26,058,42,26,73,274,51*71
$GPGSV,3,3,12,10,10,153,30,28,36,126,41,27,11,229,38,124,24,193,28*46
$GPZDA,114844.76,21,05,2011,00,00*6F
$GPGGA,114844,5633.5433,N,00346.6880,W,1,09,0.80,341.87,M,51.038,M,,*5E
$GPRMC,114844,A,5633.5433,N,00346.6880,W,16.2211,243.378,210511,,*0E
$GPGSA,A,3,05,21,15,08,07,26,10,28,27,,,,2.5,0.8,2.1*39
$GPGSV,3,1,12,05,51,184,48,21,21,309,39,15,33,277,42,03,06,007,00*7A
$GPGSV,3,2,12,19,07,036,00,08,56,067,46,07,26,058,42,26,73,274,51*74
$GPGSV,3,3,12,10,10,153,34,28,36,126,43,27,11,229,37,124,24,193,29*4E
$GPZDA,114845.76,21,05,2011,00,00*6E
$GPGGA,114845,5633.5409,N,00346.6946,W,1,09,0.80,341.27,M,51.038,M,,*57
$GPRMC,114845,A,5633.5409,N,00346.6946,W,14.7688,230.818,210511,,*07
$GPGSA,A,3,05,21,15,08,07,26,10,28,27,,,,1.5,0.8,1.2*3A
$GPGSV,3,1,12,05,51,184,46,21,21,309,41,15,33,277,43,03,06,007,00*7A
$GPGSV,3,2,12,19,07,036,00,08,56,067,47,07,26,058,44,26,73,274,51*73
$GPGSV,3,3,12,10,10,153,36,28,36,126,42,27,11,229,40,124,24,193,27*43
$GPZDA,114846.76,21,05,2011,00,00*6D
$GPGGA,114846,5633.5377,N,00346.6992,W,1,09,0.80,340.31,M,51.038,M,,*55
$GPRMC,114846,A,5633.5377,N,00346.6992,W,13.6043,214.467,210511,,*06
$GPGSA,A,3,05,21,15,08,07,26,10,28,27,,,,1.5,0.8,1.2*3A
$GPGSV,3,1,12,05,50,184,48,21,21,309,43,15,33,277,38,03,06,007,00*7B
$GPGSV,3,2,12,19,07,036,00,08,56,067,47,07,26,058,44,26,73,276,50*70
$GPGSV,3,3,12,10,09,153,35,28,36,126,44,27,11,229,42,124,24,193,28*43
$GPZDA,114847.76,21,05,2011,00,00*6C
$GPGGA,114847,5633.5342,N,00346.7018,W,1,09,0.80,339.83,M,51.038,M,,*5F
$GPRMC,114847,A,5633.5342,N,00346.7018,W,12.4490,199.916,210511,,*0F
$GPGSA,A,3,05,21,15,08,07,26,10,28,27,,,,1.5,0.8,1.2*3A
$GPGSV,3,1,12,05,50,184,48,21,21,309,40,15,33,277,37,03,06,007,00*77
$GPGSV,3,2,12,19,07,036,00,08,56,067,48,07,26,058,38,26,73,276,50*74
$GPGSV,3,3,12,10,09,153,40,28,36,126,44,27,11,229,42,124,24,193,29*40
$GPZDA,114848.76,21,05,2011,00,00*63
